[
    {
        "phone": "205.912.8400",
        "full_address": "3100 Cahaba Village Plaza, Birmingham, AL 35243",
        "name": "Mountain Brook",
        "hours": "8am to 10pm Monday - Saturday, 8am to 9pm Sunday"
    },
    {
        "phone": "251-206-7028",
        "full_address": "3968 Airport Blvd, Mobile, AL 36608",
        "name": "Mobile",
        "hours": "8:00 a.m. to 9:00 p.m. Seven days a week"
    },
    {
        "phone": "334.523.2940",
        "full_address": "1450 Taylor Rd, Montgomery, AL 36117",
        "name": "Montgomery",
        "hours": "8:00am - 10:00pm Seven days a week"
    },
    {
        "phone": "256.801.3741",
        "full_address": "2501 Memorial Pkwy SW, Huntsville, AL 35801",
        "name": "Huntsville",
        "hours": "8am to 9pm Seven Days A Week "
    },
    {
        "phone": "928-282-6311",
        "full_address": "1420 West Hwy. 89A, Sedona, AZ 86336",
        "name": "Sedona",
        "hours": "8am - 9pm Monday-Saturday, 8am - 8pm Sunday, 7am- Coffee/Juice bar only  "
    },
    {
        "phone": "928-445-7370",
        "full_address": "1112 Iron Springs Rd., Prescott, AZ 86305",
        "name": "Prescott",
        "hours": "7:00 a.m. to 8:00 p.m. Seven days a week."
    },
    {
        "phone": "520.795.9844",
        "full_address": "3360 E. Speedway Blvd., Tucson, AZ 85716",
        "name": "Speedway",
        "hours": "7am - 10pm,  7 days a week"
    },
    {
        "phone": "480-821-9447",
        "full_address": "2955 West Ray Road, Chandler, AZ 85224",
        "name": "Chandler",
        "hours": "OPEN DAILY- 7:00am -10:00pm"
    },
    {
        "phone": "928-774-5747",
        "full_address": "320 S. Cambridge Lane, Flagstaff, AZ 86001",
        "name": "Flagstaff",
        "hours": "Open Daily 7am to 9pm"
    },
    {
        "phone": "(520) 352-0111",
        "full_address": "7133 N Oracle Rd, Tucson, AZ 85704",
        "name": "Oracle",
        "hours": "7:00 am - 10:00 pm Daily "
    },
    {
        "phone": "602.569.7600",
        "full_address": "10810 N Tatum Blvd, Phoenix, AZ 85028",
        "name": "Paradise Valley",
        "hours": "7am to 10pm seven days a week"
    },
    {
        "phone": "520.461.1300",
        "full_address": "5555 E. River Road, Tucson, AZ 85750-1949",
        "name": "River Road",
        "hours": "7:00 a.m. to 10:00 p.m. Seven days a week."
    },
    {
        "phone": "480.456.1400",
        "full_address": "5120 S. Rural Rd, Tempe, AZ 85282",
        "name": "Tempe",
        "hours": "OPEN DAILY - 7am to 10pm   Juice Bar open 7am to 9pm."
    },
    {
        "phone": "6027614750",
        "full_address": "4517 N 20th St., Phoenix, AZ 85016",
        "name": "Camelback",
        "hours": "7am - 10pm seven days a week"
    },
    {
        "phone": "480.515.3777",
        "full_address": "7111 E. Mayo Blvd., Phoenix, AZ 85054",
        "name": "Scottsdale",
        "hours": "7am to 10pm Seven days a week"
    },
    {
        "phone": "501-221-2331",
        "full_address": "501 Bowman Road, Little Rock, AR 72211",
        "name": "Bowman",
        "hours": "7:30 am to 10:00 pm. Seven days a week. "
    },
    {
        "phone": "479-695-5561",
        "full_address": "3425 N. College Avenue, Fayetteville, AR 72703",
        "name": "Fayetteville",
        "hours": "STORE: 8:00am - 10:00pm; TAPROOM: 3pm-10pm, Seven days a week"
    },
    {
        "phone": "323.848.4200",
        "full_address": "7871 Santa Monica Blvd, West Hollywood, CA 90046",
        "name": "West Hollywood",
        "hours": "7am to 11pm seven days a week"
    },
    {
        "phone": "408-562-9162",
        "full_address": "2732 Augustine Drive, Santa Clara, CA 95054",
        "name": "Santa Clara",
        "hours": "8:00am - 10:00pm Seven days a week"
    },
    {
        "phone": "707.224.6300",
        "full_address": "3682 Bel Aire Plaza, Napa, CA 94558",
        "name": "Napa",
        "hours": "8 AM to 9 PM everyday. Coffee bar-7 AM to 9 PM. Keg & Barrel Room -12 PM to 8 PM (Happy Hour 3:00-5:00) "
    },
    {
        "phone": "310.315.0662",
        "full_address": "2201 Wilshire Blvd, Santa Monica, CA 90403",
        "name": "23rd & Wilshire Blvd",
        "hours": "7am to 10pm seven days a week"
    },
    {
        "phone": "650.358.6900",
        "full_address": "1010 Park Place, San Mateo, CA 94403",
        "name": "San Mateo",
        "hours": "8:00 am to 10:00 pm.  Seven days a week."
    },
    {
        "phone": "323.964.6800",
        "full_address": "6350 West 3rd Street, Los Angeles, CA 90036",
        "name": "3rd & Fairfax",
        "hours": "  REGULAR STORE HOURS:                                                    7AM to 11PM "
    },
    {
        "phone": "925-452-2226",
        "full_address": "5200 Dublin Blvd., Dublin, CA 94568",
        "name": "Dublin CA",
        "hours": "8:00 a.m. to 10:00 p.m. Seven days a week.  Join us in the Dublin Vine Taproom from 11am to 930pm (also seven days a week) "
    },
    {
        "phone": "707.938.8500",
        "full_address": "Sonoma Marketplace, Sonoma, CA 95476",
        "name": "Sonoma",
        "hours": "We are open 7am-9pm every day!"
    },
    {
        "phone": "661.260.2377",
        "full_address": "24130 Valencia Blvd, Santa Clarita, CA 91355",
        "name": "Valencia",
        "hours": "8:00am - 10:00pm 7 days/wk"
    },
    {
        "phone": "415.552.1155",
        "full_address": "450 Rhode Island St, San Francisco, CA 94107",
        "name": "Potrero Hill",
        "hours": "8am to 10pm, Seven days a week.    Steep Brew: Caf\u00e9: 8am-10pm.       Lunch: 11am-3pm, Daily.            Dinner: 3pm-10pm, Daily.            Happy Hour: 5pm-7pm, M-F."
    },
    {
        "phone": "408.358.4434",
        "full_address": "15980 Los Gatos Blvd, Los Gatos, CA 95032",
        "name": "Los Gatos",
        "hours": "7:00am to 9:00pm.  Seven days a week."
    },
    {
        "phone": "626.204.2266",
        "full_address": "465 South Arroyo Parkway, Pasadena, CA 91105",
        "name": "Arroyo",
        "hours": "Open Daily: 7:00am - 10:00pm"
    },
    {
        "phone": "(760) 797-8200",
        "full_address": "44459 Town Center Way, Palm Desert, CA 92260",
        "name": "Palm Desert",
        "hours": "7:00 a.m. to 10:00 p.m. Seven days a week."
    },
    {
        "phone": "818.762.5548",
        "full_address": "12905 Riverside Dr, Sherman Oaks, CA 91423",
        "name": "Sherman Oaks",
        "hours": "7 am to 10 pm, seven days a week                                                                                     "
    },
    {
        "phone": "310.566.9480",
        "full_address": "225 Lincoln Blvd., Venice, CA 90291",
        "name": "Venice",
        "hours": "6:30am to 10pm. Seven days a week."
    },
    {
        "phone": "619.294.2800",
        "full_address": "711 University Ave, San Diego, CA 92103",
        "name": "Hillcrest",
        "hours": "Open 7PM - 10PM daily.                    7th Ave Pub: 12PM - 9:30PM daily."
    },
    {
        "phone": "818.382.3700",
        "full_address": "4520 N. Sepulveda Blvd, Sherman Oaks, CA 91403",
        "name": "Sherman Oaks West",
        "hours": "7am to 10pm seven days a week"
    },
    {
        "phone": "323-378-3891",
        "full_address": "2520 Glendale Blvd, Los Angeles, CA 90039",
        "name": "Silver Lake 365",
        "hours": "8:00am - 11:00pm Seven days a week"
    },
    {
        "phone": "415.282.4700",
        "full_address": "3950 24th Street, San Francisco, CA 94114",
        "name": "Noe Valley",
        "hours": "8am to 10pm Seven days a week"
    },
    {
        "phone": "760.274.1580",
        "full_address": "687 S. Coast Highway 101, Encinitas, CA 92024",
        "name": "Encinitas",
        "hours": "Open 7AM to 9PM daily. "
    },
    {
        "phone": "415-878-0455",
        "full_address": "790 De Long Avenue, Novato, CA 94945-7005",
        "name": "Novato",
        "hours": "8AM to 9PM Everyday"
    },
    {
        "phone": "925.355.9000",
        "full_address": "100 Sunset Drive, San Ramon, CA 94583",
        "name": "San Ramon",
        "hours": "7:00 AM to 9:00 PM daily"
    },
    {
        "phone": "559.241.0300",
        "full_address": "650 W. Shaw Ave., Fresno, CA 93704",
        "name": "Fresno",
        "hours": "7:00am to 9:00pm everyday"
    },
    {
        "phone": "(310) 862-9900",
        "full_address": "12746 West Jefferson Blvd, Playa Vista, CA 90094",
        "name": "Playa Vista",
        "hours": "7:00am to 10:00pm Everyday"
    },
    {
        "phone": "707.575.7915",
        "full_address": "1181 Yulupa Ave, Santa Rosa, CA 95405",
        "name": "Santa Rosa",
        "hours": "8am to 9pm seven days a week"
    },
    {
        "phone": "415-451-6333",
        "full_address": "340 Third St, San Rafael, CA 94901",
        "name": "San Rafael",
        "hours": "7AM to 10PM Everyday"
    },
    {
        "phone": "415-626-1430",
        "full_address": "2001 Market Street, San Francisco, CA 94114",
        "name": "2001 Market Street",
        "hours": "8:00am - 10:00pm Seven days a week"
    },
    {
        "phone": "949-999-8572",
        "full_address": "415 Newport Center Drive, Newport Beach, CA 92660",
        "name": "Newport Beach",
        "hours": "7:00 am to 10:00pm. Seven days a Week. Back Bay Tavern 11:00 am to 10:00 pm. Seven days a week."
    },
    {
        "phone": "310.376.6931",
        "full_address": "405 North Pacific Coast Hwy, Redondo Beach, CA 90277",
        "name": "Redondo Beach",
        "hours": "8am to 10pm - Seven days a week "
    },
    {
        "phone": "818.610.0000",
        "full_address": "21347 Ventura Blvd, Woodland Hills, CA 91364",
        "name": "Woodland Hills",
        "hours": "7am to 10pm seven days a week"
    },
    {
        "phone": "408.266.3700",
        "full_address": "1146 Blossom Hill Road, San Jose, CA 95118",
        "name": "Blossom Hill",
        "hours": "Open 8:00 AM to 10:00 PM. Seven Days a Week. "
    },
    {
        "phone": "415-381-3900",
        "full_address": "731 East Blithedale, Mill Valley, CA 94941",
        "name": "Blithedale",
        "hours": "7:00am to 9:00pm. Seven days a week."
    },
    {
        "phone": "805.777.4730",
        "full_address": "740 North Moorpark Rd, Thousand Oaks, CA 91360",
        "name": "Thousand Oaks",
        "hours": "8am to 10pm- 7 Days A Week"
    },
    {
        "phone": "657.200.4200",
        "full_address": "7881 Edinger Ave Suite 150, Huntington Beach, CA 92647",
        "name": "Huntington Beach",
        "hours": "7am to 10pm seven days a week"
    },
    {
        "phone": "415.333.7400",
        "full_address": "1150 Ocean Ave, San Francisco, CA 94112",
        "name": "Ocean",
        "hours": "8am to 10pm. Seven days a week. "
    },
    {
        "phone": "818.363.3933",
        "full_address": "19340 Rinaldi Street, Northridge, CA 91326",
        "name": "Northridge (Porter Ranch)",
        "hours": "7 A.M. -  10 P.M. Seven days a week"
    },
    {
        "phone": "805-785-0194",
        "full_address": "1531 Froom Ranch Way, San Luis Obispo, CA 93405",
        "name": "San Luis Obispo",
        "hours": "8:00 a.m. to 10:00 p.m. Seven days a week."
    },
    {
        "phone": "916.984.8500",
        "full_address": "270 Palladio Parkway, Folsom, CA 95630",
        "name": "Folsom",
        "hours": "8am to 9pm Monday-Sunday"
    },
    {
        "phone": "530.750.2266",
        "full_address": "500 First Street, Davis, CA 95616",
        "name": "Davis",
        "hours": "8 a.m. - 9 p.m. seven days a week"
    },
    {
        "phone": "818.578.7840",
        "full_address": "18700 Ventura Blvd, Tarzana, CA 91356",
        "name": "Tarzana",
        "hours": "7am to 11pm - 7 Days a Week    "
    },
    {
        "phone": "415.674.0500",
        "full_address": "1765 California St, San Francisco, CA 94109",
        "name": "Franklin",
        "hours": "8am \u2013 10pm daily  "
    },
    {
        "phone": "925.274.9700",
        "full_address": "1333 Newell Ave, Walnut Creek, CA 94596",
        "name": "Walnut Creek",
        "hours": "8:00am to 10pm daily"
    },
    {
        "phone": "415.618.0066",
        "full_address": "399 4th Street, San Francisco, CA 94107",
        "name": "SoMa",
        "hours": "8am to 10pm seven days a week"
    },
    {
        "phone": "(510) 401-5880",
        "full_address": "3111 Mowry Avenue, Fremont, CA 94538",
        "name": "Fremont - California",
        "hours": "8:00 am to 9:00 pm.  Seven days a week."
    },
    {
        "phone": "510.649.1333",
        "full_address": "3000 Telegraph Ave, Berkeley, CA 94705",
        "name": "Berkeley",
        "hours": "8am to 10pm seven days a week. "
    },
    {
        "phone": "310.996.8840",
        "full_address": "11666 National Blvd, Los Angeles, CA 90064",
        "name": "West Los Angeles",
        "hours": "7:00 am to 10:00 pm. Seven days a week."
    },
    {
        "phone": "925-269-9010",
        "full_address": "2941 Ygnacio Valley Rd., Walnut Creek, CA 94598",
        "name": "Ygnacio Valley Road",
        "hours": "8:00 a.m. to 9:00 p.m. Seven days a week."
    },
    {
        "phone": "415.876.6740",
        "full_address": "690 Stanyan Street, San Francisco, CA 94117-3305",
        "name": "Haight Street",
        "hours": "8am to 10pm seven days a week"
    },
    {
        "phone": "415-381-1200",
        "full_address": "414 Miller Ave, Mill Valley, CA 94941",
        "name": "Mill Valley",
        "hours": "7AM to 9PM Everyday"
    },
    {
        "phone": "310.395.4510",
        "full_address": "500 Wilshire Blvd., Santa Monica, CA 90401",
        "name": "5th & Wilshire Blvd",
        "hours": "7 AM to 10 PM. Seven days a week. "
    },
    {
        "phone": "707.762.9352",
        "full_address": "621 E. Washington St, Petaluma, CA 94952",
        "name": "Petaluma",
        "hours": "8am to 9pm seven days a week"
    },
    {
        "phone": "916.781.5300",
        "full_address": "1001 Galleria Blvd., Roseville, CA 95678",
        "name": "Roseville",
        "hours": "8am to 9pm Sunday through Thursday.  8am to 10pm Friday and Saturday."
    },
    {
        "phone": "949.900.5830",
        "full_address": "23932 Aliso Creek Road, Laguna Niguel, CA 92677",
        "name": "Laguna Niguel",
        "hours": "7am - 10pm seven days a week Rock-It Bar 11am - 9pm"
    },
    {
        "phone": "310.333.1900",
        "full_address": "760 South Sepulveda Blvd., El Segundo, CA 90245",
        "name": "Plaza El Segundo",
        "hours": "7:00 am to 10:00 pm. Seven days a week. "
    },
    {
        "phone": "626-351-5994",
        "full_address": "3751 E. Foothill Blvd., Pasadena, CA 91107",
        "name": "Pasadena",
        "hours": "Open Daily: 7:00am - 10:00pm"
    },
    {
        "phone": "805-751-4300",
        "full_address": "650 Town Center Drive, Oxnard, CA 93036",
        "name": "Oxnard",
        "hours": "8am \u2013 10pm seven days a week"
    },
    {
        "phone": "510-809-8293",
        "full_address": "1025 Gilman Street, Berkeley, CA 94710",
        "name": "Gilman",
        "hours": "8am-10pm seven days a week. "
    },
    {
        "phone": "714.566.7650",
        "full_address": "2847 Park Avenue, Tustin, CA 92782",
        "name": "Jamboree",
        "hours": "7am to 10pm seven days a week"
    },
    {
        "phone": "650.326.8676",
        "full_address": "774 Emerson Street, Palo Alto, CA 94301",
        "name": "Palo Alto",
        "hours": "8am to 10pm seven days a week. "
    },
    {
        "phone": "1-213-873-4745",
        "full_address": "788 S. Grand Avenue, Los Angeles, CA 90017",
        "name": "Downtown Los Angeles",
        "hours": "Store Hours: 7:00am to 10:00pm. Seven days a week. The Eight Bar Hours: 11am-11pm"
    },
    {
        "phone": "408.257.7000",
        "full_address": "20955 Stevens Creek Blvd, Cupertino, CA 95014",
        "name": "Cupertino",
        "hours": "Open 8am-10pm. Coffee, Juice, and Breakfast Bar open at 7am. Brew Hub open 11am-10pm - Dosateria open 10am-9pm."
    },
    {
        "phone": "(707) 542-7411",
        "full_address": "390 Coddingtown Mall, Santa Rosa, CA 95401",
        "name": "Coddingtown",
        "hours": "8 a.m. to 10 p.m. daily"
    },
    {
        "phone": "650.367.1400",
        "full_address": "1250 Jefferson Ave, Redwood City, CA 94062",
        "name": "Redwood City",
        "hours": "7am to 10pm. Seven days a week"
    },
    {
        "phone": "408.207.1126",
        "full_address": "777 The Alameda, San Jose, CA 95126",
        "name": "San Jose - on The Alameda",
        "hours": "8:00 a.m. to 10:00 p.m. Seven days a week."
    },
    {
        "phone": "(858) 436-9800",
        "full_address": "2600 Via De La Valle, Suite 100, Del Mar, CA 92014",
        "name": "Del Mar",
        "hours": "Open 7AM to 10PM daily."
    },
    {
        "phone": "831.426.9901",
        "full_address": "911 Soquel Ave, Santa Cruz, CA 95062",
        "name": "Santa Cruz",
        "hours": "8am to 9pm seven days a week  "
    },
    {
        "phone": "310.826.4433",
        "full_address": "11737 San Vicente Blvd, Los Angeles, CA 90049",
        "name": "Brentwood",
        "hours": "7am to 10pm seven days a week"
    },
    {
        "phone": "310.257.8700",
        "full_address": "2655 Pacific Coast Hwy, Torrance, CA 90505",
        "name": "Torrance",
        "hours": "8:00am to 10:00pm seven days a week"
    },
    {
        "phone": "650.559.0300",
        "full_address": "4800 El Camino Real, Los Altos, CA 94022",
        "name": "Los Altos",
        "hours": "8am to 10pm seven days a week"
    },
    {
        "phone": "858.642.6700",
        "full_address": "8825 Villa La Jolla Dr, La Jolla, CA 92037-9994",
        "name": "La Jolla",
        "hours": "Open 7AM to 10PM daily."
    },
    {
        "phone": "562.598.8687",
        "full_address": "6550 E. Pacific Coast Highway, Long Beach, CA 90803",
        "name": "Long Beach",
        "hours": "7am to 10pm seven days a week"
    },
    {
        "phone": "510.834.9800",
        "full_address": "230 Bay Place, Oakland, CA 94612",
        "name": "Oakland",
        "hours": "8am to 10pm seven days a week"
    },
    {
        "phone": "916.488.2800",
        "full_address": "4315 Arden Way, Sacramento, CA 95864",
        "name": "Sacramento",
        "hours": "7am to 9pm seven days a week "
    },
    {
        "phone": "310.824.0858",
        "full_address": "1050 S. Gayley Ave, Los Angeles, CA 90024",
        "name": "Westwood",
        "hours": "7am to 10pm. Seven days a week"
    },
    {
        "phone": "707.829.9801",
        "full_address": "6910 McKinley St, Sebastopol, CA 95472",
        "name": "Sebastopol",
        "hours": "8am to 9pm seven days a week"
    },
    {
        "phone": "831.464.2900",
        "full_address": "1710 41st Avenue, Capitola, CA 95010",
        "name": "Capitola",
        "hours": "8am to 9pm seven days a week "
    },
    {
        "phone": "408.371.5000",
        "full_address": "1690 South Bascom Ave, Campbell, CA 95008",
        "name": "Campbell",
        "hours": "8am to 10pm  - 7 days a week"
    },
    {
        "phone": "714-528-7400",
        "full_address": "3301 Imperial Hwy., Brea, CA 92823",
        "name": "Brea",
        "hours": "7:00 a.m. - 10:00 p.m. Daily"
    },
    {
        "phone": "805-837-6959",
        "full_address": "3761 State Street, Santa Barbara, CA 93105",
        "name": "Santa Barbara",
        "hours": "7am - 10pm, 7 days a week"
    },
    {
        "phone": "818.548.3695",
        "full_address": "331 North Glendale Ave, Glendale, CA 91206",
        "name": "Glendale",
        "hours": "7am\u201310pm Seven Days a Week"
    },
    {
        "phone": "310.274.3360",
        "full_address": "239 North Crescent Dr, Beverly Hills, CA 90210",
        "name": "Beverly Hills",
        "hours": "7am to 10pm seven days a week"
    },
    {
        "phone": "310.576.4707",
        "full_address": "1425 Montana Ave., Santa Monica, CA 90403",
        "name": "Montana Avenue",
        "hours": "7am to 10pm seven days a week"
    },
    {
        "phone": "949.777.8500",
        "full_address": "8525 Irvine Center Drive, Irvine, CA 92618",
        "name": "Irvine",
        "hours": "Now Open!  Business Hours: 7:00 a.m. - 10:00 p.m.  Seven days a week"
    },
    {
        "phone": "949.376.7888",
        "full_address": "283 Broadway St., Laguna Beach, CA 92651",
        "name": "Laguna Beach",
        "hours": "7am to 9pm seven days a week"
    },
    {
        "phone": "831.333.1600",
        "full_address": "800 Del Monte Center, Monterey, CA 93940",
        "name": "Monterey",
        "hours": "8am to 9pm seven days a week"
    },
    {
        "phone": "925.284.5305",
        "full_address": "3502 Mt. Diablo Blvd., Lafayette, CA 94549",
        "name": "Lafayette",
        "hours": "7:30am to 9pm seven days a week"
    },
    {
        "phone": "719.622.1099",
        "full_address": "3180 New Center Point, Colorado Springs, CO 80922",
        "name": "First & Main",
        "hours": "Open 8am-9pm, daily."
    },
    {
        "phone": "303.545.6611",
        "full_address": "2905 Pearl St, Boulder, CO 80301",
        "name": "Pearl",
        "hours": "Open 7am to 10pm, daily."
    },
    {
        "phone": "720.941.4100",
        "full_address": "2375 E. 1st Ave, Denver, CO 80206",
        "name": "Cherry Creek",
        "hours": "Open 7am to 10pm, daily"
    },
    {
        "phone": "303.488.2000",
        "full_address": "7400 E. Hampden Ave, Denver, CO 80231",
        "name": "Tamarac",
        "hours": "Open 7am to 10pm, daily."
    },
    {
        "phone": "(970) 927-1500",
        "full_address": "340 Reed Street, Basalt, CO 81621",
        "name": "Roaring Fork",
        "hours": "7:30am-9pm, daily."
    },
    {
        "phone": "719.531.9999",
        "full_address": "7635 North Academy Blvd, Colorado Springs, CO 80920-3207",
        "name": "Pikes Peak",
        "hours": "Open 7:30am-9:30pm, daily."
    },
    {
        "phone": "970.668.9400",
        "full_address": "261 Lusher Court, Frisco, CO 80443",
        "name": "Frisco",
        "hours": "Open 8am to 9pm, daily."
    },
    {
        "phone": "303.470.6003",
        "full_address": "9366 S. Colorado Blvd., Highlands Ranch, CO 80126",
        "name": "Highlands Ranch",
        "hours": "Open 8am-9pm, daily. Coffee bar opens at 7am!"
    },
    {
        "phone": "303.277.1339",
        "full_address": "14357 W. Colfax Ave., Golden, CO 80401",
        "name": "Colfax",
        "hours": "Open 7:30am-9:30pm, daily."
    },
    {
        "phone": "303.443.1354",
        "full_address": "1275 Alpine Ave., Boulder, CO 80304",
        "name": "Ideal Market",
        "hours": "Open 7am to 10pm, daily."
    },
    {
        "phone": "303.935.5000",
        "full_address": "444 S.Wadsworth Blvd, Lakewood, CO 80226",
        "name": "Belmar",
        "hours": "Open 7:30 am to 10 pm, Daily"
    },
    {
        "phone": "303.691.0101",
        "full_address": "870 S. Colorado Blvd., Glendale, CO 80246",
        "name": "Colorado Boulevard",
        "hours": "Open 7am to 10pm, daily."
    },
    {
        "phone": "970.267.9200",
        "full_address": "2201 S College Ave, Fort Collins, CO 80525",
        "name": "Fort Collins",
        "hours": "Open 7am to 10pm, daily."
    },
    {
        "phone": "303.733.6201",
        "full_address": "1111 S. Washington Street, Denver, CO 80210",
        "name": "Washington Park",
        "hours": "Open 7am to 10pm, daily."
    },
    {
        "phone": "720.274.1415",
        "full_address": "303 Marshall Rd., Superior, CO 80027",
        "name": "Superior",
        "hours": "Open 8am-9:30pm, daily."
    },
    {
        "phone": "303.832.7701",
        "full_address": "900 E. 11th Ave., Denver, CO 80218",
        "name": "Capitol Hill",
        "hours": "Open 7am to 10pm, daily."
    },
    {
        "phone": "303-439-7000",
        "full_address": "4451 Main St., Westminster, CO 80031",
        "name": "Bradburn",
        "hours": "8am to 9:30pm, daily"
    },
    {
        "phone": "303-586-5220",
        "full_address": "5155 S. Wadsworth Blvd., Littleton, CO 80123-2217",
        "name": "Governor\u2019s Ranch",
        "hours": "Open 7:30 am to 9:30 pm daily"
    },
    {
        "phone": "303.499.7636",
        "full_address": "2584 Baseline Rd., Boulder, CO 80305",
        "name": "Baseline",
        "hours": "Open 7am-10pm, daily."
    },
    {
        "phone": " 303-996-3660",
        "full_address": "6853 South York Street, Centennial, CO 80122",
        "name": "SouthGlenn",
        "hours": "Open 7am-10pm, daily."
    },
    {
        "phone": "(203) 662-0577",
        "full_address": "150 Ledge Road, Darien, CT 06820",
        "name": "Darien",
        "hours": "8:00 am to 10:00 pm seven days a week"
    },
    {
        "phone": "203.227.6858",
        "full_address": "399 Post Road West, Westport, CT 06880",
        "name": "Westport",
        "hours": "8:00am - 10:00pm Daily"
    },
    {
        "phone": "203.319.9544",
        "full_address": "350 Grasmere Avenue, Fairfield, CT 06824",
        "name": "Fairfield",
        "hours": "8:00 am to 10:00 pm seven days a week"
    },
    {
        "phone": "203.661.0631",
        "full_address": "90 E. Putnam Ave., Greenwich, CT 06830",
        "name": "Greenwich",
        "hours": "7am to 10pm seven days a week"
    },
    {
        "phone": "203-730-0599",
        "full_address": "5C Sugar Hollow Road, Danbury, CT 06810",
        "name": "Danbury",
        "hours": "8am to 10pm Daily                        "
    },
    {
        "phone": "860.523.7174",
        "full_address": "340 N. Main St., West Hartford, CT 06117",
        "name": "Bishops Corner",
        "hours": "8am to 9pm seven days a week"
    },
    {
        "phone": "203.874.0883",
        "full_address": "1686 Boston Post Road, Milford, CT 06460",
        "name": "Milford",
        "hours": "8am to 10pm seven days a week"
    },
    {
        "phone": "860.523.8500",
        "full_address": "50 Raymond Rd, West Hartford, CT 06107",
        "name": "West Hartford",
        "hours": "8am to 10pm seven days a week"
    },
    {
        "phone": "860.652.9800",
        "full_address": "55 Welles Street, Glastonbury, CT 06033",
        "name": "Glastonbury",
        "hours": "8am to 9pm seven days a week"
    },
    {
        "phone": "202.332.4300  or (202) 265-4665,  (202) 265-4748 ",
        "full_address": "1440 P Street NW, Washington, DC 20005",
        "name": "P Street",
        "hours": "Daily 7:00 am to 10:30 pm.          "
    },
    {
        "phone": "202.237.5800",
        "full_address": "4530 40th St NW Tenley Circle, Washington, DC 20016",
        "name": "Tenleytown",
        "hours": "8:00am to 10:00pm. Seven days a week. Coffee bar opens at 7:00am "
    },
    {
        "phone": "202.333.5393",
        "full_address": "2323 Wisconsin Ave N.W., Washington, DC 20007",
        "name": "Georgetown",
        "hours": "7:30am to 10:30pm seven days a week"
    },
    {
        "phone": "202.296.1660",
        "full_address": "2201 I Street NW, Washington, DC 20037",
        "name": "Foggy Bottom",
        "hours": "7am to 11pm Monday-Sunday       "
    },
    {
        "phone": "561-471-3800",
        "full_address": "1845 Palm Beach Lakes Boulevard, West Palm Beach, FL 33401",
        "name": "West Palm Beach",
        "hours": "8:00 a.m. to 10:00 p.m. Seven days a week."
    },
    {
        "phone": "561.447.0000",
        "full_address": "1400 Glades Rd, Boca Raton, FL 33431",
        "name": "Boca Raton",
        "hours": "8am to 10pm seven days a week"
    },
    {
        "phone": "(305) 421-9421",
        "full_address": "6701 Red Road, Coral Gables, FL 33143",
        "name": "Coral Gables",
        "hours": "8:00 am to 10:00 pm.         Seven days a week"
    },
    {
        "phone": "813.348.1200",
        "full_address": "1548 North Dale Mabry Highway., Tampa, FL 33607",
        "name": "Tampa",
        "hours": "8:00 am to 10:00 pm. Seven days a week. "
    },
    {
        "phone": "305-892-5500",
        "full_address": "12150 Biscayne Blvd, North Miami, FL 33181",
        "name": "North Miami",
        "hours": "8:00 am \u2013 10:00 pm seven days a week"
    },
    {
        "phone": "239.552.5100",
        "full_address": "9101 Strada Place, Naples, FL 34108",
        "name": "Naples",
        "hours": "8am to 10pm Monday to Saturday, 8am to 9pm Sunday "
    },
    {
        "phone": "813-264-3600",
        "full_address": "3802 Northdale Blvd., Tampa, FL 33624-1833",
        "name": "Carrollwood",
        "hours": "8 a.m. to 9 p.m. - 7 days a week"
    },
    {
        "phone": "727-724-7100",
        "full_address": "27001 US 19 North, Clearwater, FL 33761",
        "name": "Clearwater",
        "hours": "8:00 a.m. to 10:00 p.m. Seven days a week."
    },
    {
        "phone": "850-269-7400",
        "full_address": "4402 Legendary Drive, Destin, FL 32541",
        "name": "Destin",
        "hours": "Store: 8:00am to 10:00pm. Coffee bar: 8:00am- 8:00pm. Seven days a week. "
    },
    {
        "phone": "407-377-6040",
        "full_address": "1030 N. Orlando Ave, Winter Park, FL 32789",
        "name": "Winter Park North",
        "hours": "8:00am to 10:00pm seven days a week    "
    },
    {
        "phone": "305-682-4400",
        "full_address": "21105 Biscayne Blvd, Aventura, FL 33180",
        "name": "Aventura",
        "hours": "8am - 10pm, regular hours"
    },
    {
        "phone": "850-513-4200",
        "full_address": "1817 Thomasville Road, Tallahassee, FL 32303",
        "name": "Tallahassee",
        "hours": "8:00 am to 9:00 pm, Daily"
    },
    {
        "phone": "407.355.7100",
        "full_address": "8003 Turkey Lake Road, Orlando, FL 32819",
        "name": "Orlando",
        "hours": "8am to 10pm seven days a week    "
    },
    {
        "phone": "954-786-3500",
        "full_address": "2411 N Federal Highway, Pompano Beach, FL 33062",
        "name": "Pompano Beach",
        "hours": "Monday-Saturday 7:00am-10:00pm. Sunday 8:00am-10:00pm"
    },
    {
        "phone": "1 954.392.3500",
        "full_address": "14956 Pines Blvd, Pembroke Pines, FL 33027",
        "name": "Pembroke Pines",
        "hours": "8am to 10pm seven days a week"
    },
    {
        "phone": "561.904.4000",
        "full_address": "2635 State Road 7, Wellington, FL 33414-9372",
        "name": "Wellington",
        "hours": "Monday through Saturday, 8am to 10pm, Sundays 8am to 9pm"
    },
    {
        "phone": "(305) 969-5800",
        "full_address": "11701 South Dixie Highway, Pinecrest, FL 33156",
        "name": "Pinecrest",
        "hours": "8:00 am - 10:00 pm. Seven days a week."
    },
    {
        "phone": "954-398-2000",
        "full_address": "2000 N Federal Hwy, Fort Lauderdale, FL 33305",
        "name": "Fort Lauderdale",
        "hours": "8am to 10pm seven days a week"
    },
    {
        "phone": "954-916-3000",
        "full_address": "1903 S. University Drive, Davie, FL 33324",
        "name": "Davie",
        "hours": "8:00 am-10:00 pm Seven days a week. Allegro Coffee Bar open from 8am-8pm."
    },
    {
        "phone": "561-630-3400",
        "full_address": "11701 Lake Victoria Gardens Ave, Palm Beach Gardens, FL 33410",
        "name": "Palm Beach Gardens",
        "hours": "8am to 10pm seven days a week"
    },
    {
        "phone": "904.288.1100",
        "full_address": "10601 San Jose Blvd, Jacksonville, FL 32257",
        "name": "Jacksonville",
        "hours": "8am to 9pm seven days a week"
    },
    {
        "phone": "(305) 938-2800",
        "full_address": "1020 Alton Road, Miami Beach, FL 33139",
        "name": "South Beach",
        "hours": "8:00 a.m. to 11:00 p.m. Seven days a week"
    },
    {
        "phone": "407.767.2100",
        "full_address": "305 East Altamonte Drive, Altamonte Springs, FL 32701",
        "name": "Altamonte Springs",
        "hours": "8:00am - 10:00pm Seven days a week"
    },
    {
        "phone": "305-995-0600",
        "full_address": "299 SE 3rd Ave, Miami, FL 33131",
        "name": "Downtown Miami",
        "hours": "7:30 am \u2013 11:00 pm seven days a week"
    },
    {
        "phone": "407.672.7400",
        "full_address": "1989 Aloma Ave, Winter Park, FL 32792",
        "name": "Winter Park CLOSED",
        "hours": "Store Closed"
    },
    {
        "phone": "941.316.4700",
        "full_address": "1451 1st Street, Sarasota, FL 34236",
        "name": "Sarasota",
        "hours": "8am to 9pm Monday to Saturday, 9am to 9pm Sunday"
    },
    {
        "phone": "954.796.5800",
        "full_address": "810 University Drive, Coral Springs, FL 33071",
        "name": "Coral Springs",
        "hours": "8am to 10pm seven days a week"
    },
    {
        "phone": "912-358-5829",
        "full_address": "1815 E. Victory Drive, Savannah, GA 31404",
        "name": "Savannah",
        "hours": "8am-9pm seven days a week"
    },
    {
        "phone": "762-333-0260",
        "full_address": "2907 Washington Rd., Augusta, GA 30909",
        "name": "Augusta",
        "hours": "8:00 a.m. to 9:00 p.m. Seven days a week."
    },
    {
        "phone": "678.534.3138",
        "full_address": "2800 Old Milton Pkwy, Alpharetta, GA 30009",
        "name": "Avalon",
        "hours": "8am to 10pm seven days a week"
    },
    {
        "phone": "404.634.7800",
        "full_address": "2111 Briarcliff Rd NE, Atlanta, GA 30329",
        "name": "Briarcliff",
        "hours": "8am to 10pm Monday - Saturday,  9am to 9pm Sunday"
    },
    {
        "phone": "678.996.9700",
        "full_address": "1311 Johnson Ferry Road NE, Marietta, GA 30068",
        "name": "Merchants Walk",
        "hours": "8am to 10pm seven days a week "
    },
    {
        "phone": "404.236.0810",
        "full_address": "5930 Roswell Rd, Atlanta, GA 30328",
        "name": "Sandy Springs",
        "hours": "8am to 10pm Monday to Saturday, 8am to 9pm Sunday"
    },
    {
        "phone": "678.514.2400",
        "full_address": "5945 State Bridge Rd, Johns Creek, GA 30097",
        "name": "Johns Creek",
        "hours": "8am to 10pm Monday to Saturday; 9am to 9pm Sunday "
    },
    {
        "phone": "404.324.4100",
        "full_address": "77 West Paces Ferry Rd NW, Atlanta, GA 30305",
        "name": "Buckhead ",
        "hours": "7:30am to 10pm Monday to Saturday, 8am to 9pm Sunday"
    },
    {
        "phone": "770.578.4400",
        "full_address": "70 Powers Ferry Rd SE, Marietta, GA 30067",
        "name": "Cobb Harry's",
        "hours": "9am to 9pm Monday to Saturday, 9am to 8pm Sunday"
    },
    {
        "phone": "404.853.1681",
        "full_address": "650 Ponce de Leon Ave NE, Atlanta, GA 30308",
        "name": "Ponce de Leon",
        "hours": "7:30am to 10pm seven days a week"
    },
    {
        "phone": "808.738.0820",
        "full_address": "4211 Wai'alae Avenue, Honolulu, HI 96816",
        "name": "Honolulu",
        "hours": "7am to 10pm seven days a week"
    },
    {
        "phone": "808.263.6800",
        "full_address": "629 Kailua Road, Suite 100, Kailua, HI 96734",
        "name": "Kailua",
        "hours": "7am to 10pm seven days a week"
    },
    {
        "phone": "808.872.3310",
        "full_address": "70 East Kaahumanu Avenue #B, Kahului, HI 96732",
        "name": "Maui",
        "hours": "7am to 9pm seven days a week"
    },
    {
        "phone": "208.287.4600",
        "full_address": "401 S. Broadway, Boise, ID 83702",
        "name": "Boise",
        "hours": "Regular store hours 7:30am-10pm, daily \u2022 The River Room is open daily from 11am-10pm \u2022 Coffee Bar opens at 7:00am. "
    },
    {
        "phone": "847.733.1600",
        "full_address": "1640 Chicago Ave, Evanston, IL 60201",
        "name": "Downtown Evanston",
        "hours": "8am to 10pm, seven days a week"
    },
    {
        "phone": "847.475.9492",
        "full_address": "1111 Chicago Ave., Evanston, IL 60202",
        "name": "Evanston South",
        "hours": "8 AM to 9 PM seven days a week.  "
    },
    {
        "phone": "312.435.4600",
        "full_address": "1101 S. Canal St, Chicago, IL 60607",
        "name": "South Loop",
        "hours": "8:00am to 10:00pm. Seven Days a Week."
    },
    {
        "phone": "630.986.8500",
        "full_address": "500 E. Ogden Ave., Hinsdale, IL 60521",
        "name": "Hinsdale",
        "hours": "8am to 10pm seven days a week"
    },
    {
        "phone": "312.207.8400",
        "full_address": "1 N. Halsted Street, Chicago, IL 60661",
        "name": "West Loop",
        "hours": "7:00 am to 10:00 pm Seven days a week"
    },
    {
        "phone": "773-506-7600",
        "full_address": "6009 North Broadway, Chicago, IL 60660",
        "name": "Chicago Edgewater",
        "hours": "8:00 a.m. to 10:00 p.m. Seven days a week."
    },
    {
        "phone": "630-993-7600",
        "full_address": "215 S. IL Rte 83, Elmhurst, IL 60126",
        "name": "Elmhurst",
        "hours": "8:00am to 10:00pm seven days a week"
    },
    {
        "phone": "847-292-7100",
        "full_address": "225 W. Touhy Ave, Park Ridge, IL 60068",
        "name": "Park Ridge",
        "hours": "8:00 am to 10:00 pm seven days a week"
    },
    {
        "phone": "773.205.1100",
        "full_address": "6020 N Cicero Ave, Chicago, IL 60646",
        "name": "Sauganash",
        "hours": "8am to 10pm seven days a week"
    },
    {
        "phone": "847-424-5700",
        "full_address": "2748 Green Bay Road, Evanston, IL 60201",
        "name": "Green Bay Road",
        "hours": "8:00 a.m. to 10:00 p.m. Seven days a week"
    },
    {
        "phone": "773-819-1600",
        "full_address": "5118 S. Lake Park Ave, Chicago, IL 60615",
        "name": "Hyde Park",
        "hours": "7:00am - 10:00pm Seven days a week."
    },
    {
        "phone": "630.579.7700",
        "full_address": "2607 W. 75th Street, Naperville, IL 60540",
        "name": "Naperville",
        "hours": " Open 8 am to 10 pm seven days a week "
    },
    {
        "phone": "773-868-5200",
        "full_address": "959 West Fullerton Avenue, Chicago, IL 60614",
        "name": "DePaul",
        "hours": "7:00 a.m. to 10:00 p.m. Seven days a week."
    },
    {
        "phone": "773.244.4200",
        "full_address": "3300 N. Ashland Ave, Chicago, IL 60657",
        "name": "Lakeview",
        "hours": "8am to 10pm seven days a week"
    },
    {
        "phone": "847.205.5353",
        "full_address": "840 Willow Road, Northbrook, IL 60062",
        "name": "Northbrook",
        "hours": "8am to 9pm seven days a week "
    },
    {
        "phone": "(847) 726-4601",
        "full_address": "20281 N Rand Road, Kildeer, IL 60074",
        "name": "Kildeer",
        "hours": "Hours: 8am to 9pm "
    },
    {
        "phone": "708.366.1045",
        "full_address": "7245 Lake St, River Forest, IL 60305",
        "name": "River Forest",
        "hours": "8am to 10pm seven days a week"
    },
    {
        "phone": "312.587.0648",
        "full_address": "1550 N. Kingsbury Street, Chicago, IL 60642",
        "name": "Lincoln Park",
        "hours": "8am to 10pm seven days a week"
    },
    {
        "phone": "630.655.5000",
        "full_address": "6300 S. Robert Kingery Highway, Willowbrook, IL 60527",
        "name": "Willowbrook",
        "hours": "8:00 a.m. to 10:00 p.m. Seven days a week."
    },
    {
        "phone": "708-364-1350",
        "full_address": "15260 S. LaGrange Road, Orland Park, IL 60462",
        "name": "Orland Park",
        "hours": "8 am \u2013 10 pm Seven days a week"
    },
    {
        "phone": "773-896-9800",
        "full_address": "832 W 63rd Street, Chicago, IL 60621",
        "name": "Englewood",
        "hours": "8:00am - 8:00pm Seven days a week"
    },
    {
        "phone": "312.932.9600",
        "full_address": "30 West Huron St, Chicago, IL 60654",
        "name": "Gold Coast",
        "hours": "7am to 10pm seven days a week"
    },
    {
        "phone": "847-585-5800",
        "full_address": "750 N. Martingale Rd., Schaumburg, IL 60173",
        "name": "Schaumburg",
        "hours": "8:00am to 10:00pm. Seven days a week"
    },
    {
        "phone": "630.588.1500",
        "full_address": "151 Rice Lake Square, Wheaton, IL 60189",
        "name": "Wheaton",
        "hours": "8am to 10pm seven days a week"
    },
    {
        "phone": "312.379.7900",
        "full_address": "255 E. Grand Ave, Chicago, IL 60611",
        "name": "Streeterville",
        "hours": "7:00 a.m. to 10:00 p.m. Seven days a week."
    },
    {
        "phone": "773.472.0400",
        "full_address": "3640 N Halsted St, Chicago, IL 60613",
        "name": "Halsted and Waveland",
        "hours": "8am to 10pm seven days a week"
    },
    {
        "phone": "847.444.1900",
        "full_address": "760 Waukegan Rd, Deerfield, IL 60015",
        "name": "Deerfield",
        "hours": "8am to 10pm seven days a week.   "
    },
    {
        "phone": "317.569.1517",
        "full_address": "14598 Clay Terrace Blvd., Carmel, IN 46032",
        "name": "Carmel",
        "hours": "Regular Hours: Monday to Saturday 8am-10pm, Sunday 8am-9pm"
    },
    {
        "phone": "317.706.0900",
        "full_address": "1300 E. 86th St., Indianapolis, IN 46240",
        "name": "Eighty-Sixth St.",
        "hours": "Regular Hours: 8am to 10pm seven days a week. "
    },
    {
        "phone": "574-247-5800",
        "full_address": "4230 Grape Road, Mishawaka, IN 46545-1007",
        "name": "Mishawaka",
        "hours": "8am - 10pm. Seven days a week"
    },
    {
        "phone": "219-864-5400",
        "full_address": "199 US HWY 41, Schererville, IN 46375",
        "name": "Schererville",
        "hours": "8:00 a.m. to 10:00 p.m. Monday - Sunday"
    },
    {
        "phone": "515.343.2600",
        "full_address": "4100 University Ave Suite #260, West Des Moines, IA 50266",
        "name": "West Des Moines",
        "hours": "8am to 10pm seven days a week"
    },
    {
        "phone": "913.764.5656",
        "full_address": "14615 W. 119th Street, Olathe, KS 66062",
        "name": "Olathe",
        "hours": "Open 8am-9pm, daily."
    },
    {
        "phone": "913.652.9633",
        "full_address": "7401 West 91st St, Overland Park, KS 66212",
        "name": "91st and Metcalf",
        "hours": "Open 7:30am-10pm, daily."
    },
    {
        "phone": "316-630-8484",
        "full_address": "1423 N. Webb Rd., Wichita, KS 67206",
        "name": "Wichita",
        "hours": "Open 7:30am-9pm, daily"
    },
    {
        "phone": "913.663.2951",
        "full_address": "6621 West 119th Street, Overland Park, KS 66209-2020",
        "name": "119th St",
        "hours": "Open 8:00am-10:00pm, daily."
    },
    {
        "phone": "502.899.5545",
        "full_address": "4944 Shelbyville Road, Louisville, KY 40207",
        "name": "Louisville ",
        "hours": "STORE HOURS: 8am to 10pm, seven days a week"
    },
    {
        "phone": "859.971.8600",
        "full_address": "161 Lexington Green Circle, Lexington, KY 40503",
        "name": "Lexington",
        "hours": "8a-10p Daily"
    },
    {
        "phone": "318.462.9895",
        "full_address": "1380 E 70th St, Shreveport, LA 71105",
        "name": "Shreveport",
        "hours": "8am\u201310pm seven days a week"
    },
    {
        "phone": "504.888.8225",
        "full_address": "3420 Veterans Memorial Blvd, Metairie, LA 70002",
        "name": "Veterans",
        "hours": "8am - 10pm every day"
    },
    {
        "phone": "337-314-9653",
        "full_address": "4247 Ambassador Caffery Parkway, Lafayette, LA 70508",
        "name": "Ambassador Caffery",
        "hours": "8am-10pm Seven days a week."
    },
    {
        "phone": "985-231-3328",
        "full_address": "3450 Highway 190, Mandeville, LA 70471",
        "name": "Mandeville",
        "hours": "8:00am - 10:00pm Seven days a week"
    },
    {
        "phone": "504.434.3364",
        "full_address": "300 N Broad St, New Orleans, LA 70119",
        "name": "Broad Street",
        "hours": "7:00am-9:00pm. Seven days a week.  "
    },
    {
        "phone": "(225) 218-0452",
        "full_address": "7529 Corporate Blvd, Baton Rouge, LA 70809",
        "name": "Baton Rouge",
        "hours": "8am\u201310pm. Seven Days a Week"
    },
    {
        "phone": "504.899.9119",
        "full_address": "5600 Magazine Street, New Orleans, LA 70115",
        "name": "Arabella Station",
        "hours": "8am to 9pm seven days a week"
    },
    {
        "phone": "207.774.7711",
        "full_address": "2 Somerset St, Portland, ME 04101",
        "name": "Portland - Maine",
        "hours": "Open 8am-10pm seven days a week.     Somerset Tap House Hours: 11am-10pm Last call for food is 9pm and alcohol 9:30pm.          HOLIDAY HOURS: 11/22 7am-10pm, 11/23 7am-10pm, CLOSED ON THANKSGIVING"
    },
    {
        "phone": "301.258.9500",
        "full_address": "316 Kentlands Blvd, Gaithersburg, MD 20878-5454",
        "name": "Kentlands",
        "hours": "7.30am to 9pm seven days a week"
    },
    {
        "phone": "301.657.1520",
        "full_address": "4420 Willard Ave., Chevy Chase, MD 20815",
        "name": "Friendship Heights",
        "hours": "8am to 10pm, Seven days a week. Coffee bar opens at 7am."
    },
    {
        "phone": "240.865.1827",
        "full_address": "10275 Little Patuxent Pkwy, Columbia, MD 21044",
        "name": "Columbia - Maryland",
        "hours": "Store Hours:  7:00am-10:00pm    Every Day (Hours subject to change on major holidays)"
    },
    {
        "phone": "410.532.6700",
        "full_address": "1330 Smith Ave, Baltimore, MD 21209",
        "name": "Mt. Washington",
        "hours": "8 AM - 9:00 PM - everyday "
    },
    {
        "phone": "301.984.4880",
        "full_address": "11355 Woodglen Drive, Rockville, MD 20852",
        "name": "Rockville",
        "hours": "8am to 10pm Monday to Saturday, 8am to 9pm Sunday. Coffee bar opens at 7am daily"
    },
    {
        "phone": "301.984.4860",
        "full_address": "5269 River Rd, Bethesda, MD 20816",
        "name": "Bethesda",
        "hours": "Open every day 7:30 am - 9 pm."
    },
    {
        "phone": "410.573.1800",
        "full_address": "200 Harker PIace, Annapolis, MD 21401",
        "name": "Annapolis",
        "hours": "Monday-Saturday 7am-10pm Sunday 7am-9pm "
    },
    {
        "phone": "301.608.9373",
        "full_address": "833 Wayne Ave, Silver Spring, MD 20910",
        "name": "Silver Spring",
        "hours": "7am to 10pm seven days a week"
    },
    {
        "phone": "410.528.1640",
        "full_address": "1001 Fleet Street, Baltimore, MD 21202",
        "name": "Harbor East",
        "hours": "Monday-Friday: 7:00am-10:00pm; Saturday & Sunday: 8:00am-10:00pm "
    },
    {
        "phone": "617-902-9300",
        "full_address": "45 Beacon Street, Somerville, MA 02143",
        "name": "Somerville",
        "hours": "Regular Hours 8am - 10pm "
    },
    {
        "phone": "617.491.0040",
        "full_address": "200 Alewife Brook Pkwy, Cambridge, MA 02138",
        "name": "Fresh Pond",
        "hours": "8am to 10pm \u2022\u00a07 days a week"
    },
    {
        "phone": "978-303-2900",
        "full_address": "160 Littleton Road, Westford, MA 01886",
        "name": "Westford",
        "hours": "8:00 a.m. to 9:00 p.m. Seven days a week."
    },
    {
        "phone": "508.628.9525",
        "full_address": "575 Worcester Rd, Framingham, MA 01701",
        "name": "Framingham",
        "hours": "7am to 10pm seven days a week"
    },
    {
        "phone": "617.965.2070",
        "full_address": "647 Washington Street, Newtonville, MA 02458",
        "name": "Newtonville",
        "hours": "8 AM to 10 PM 7 Days A Week"
    },
    {
        "phone": "781-777-7200",
        "full_address": "808 Massachusetts Avenue, Arlington, MA 02476",
        "name": "Arlington MA",
        "hours": "8AM \u2013 10PM seven days a week"
    },
    {
        "phone": "781.275.8264",
        "full_address": "170 Great Rd, Bedford, MA 01730",
        "name": "Bedford",
        "hours": "Open 8am-9pm seven days a week.  Holiday Hours: 11/22 7am-10pm, 11/23 7am-10pm, CLOSED ON THANKSGIVING"
    },
    {
        "phone": "781.395.4998",
        "full_address": "2151 Mystic Valley Parkway, Medford, MA 02155",
        "name": "Medford",
        "hours": "8AM to 9PM, Seven days a week"
    },
    {
        "phone": "508.966.3331",
        "full_address": "255 Hartford Ave, Bellingham, MA 02019",
        "name": "Bellingham",
        "hours": "Open 8am - 9pm daily"
    },
    {
        "phone": "508.358.7700",
        "full_address": "317 Boston Post Rd, Wayland, MA 01778",
        "name": "Wayland",
        "hours": "8am to 9pm seven days a week"
    },
    {
        "phone": "617.553.5400",
        "full_address": "413 Centre Street, Jamaica Plain, MA 02130",
        "name": "Jamaica Plain",
        "hours": "8am to 10pm seven days a week"
    },
    {
        "phone": "781.592.2200",
        "full_address": "331 Paradise Rd, Swampscott, MA 01907",
        "name": "Swampscott",
        "hours": "8am to 9pm seven days a week"
    },
    {
        "phone": "617.375.1010",
        "full_address": "15 Westland Ave, Boston, MA 02115",
        "name": "Symphony",
        "hours": "7:00am to 10:30pm seven days a week! Check back here for changes to our schedules."
    },
    {
        "phone": "617-202-0550",
        "full_address": "1028 Beacon Street, Brookline, MA 02446",
        "name": "Brookline",
        "hours": "8am \u2013 10pm, 7 days a week"
    },
    {
        "phone": "617.492.0070",
        "full_address": "115 Prospect St, Cambridge, MA 02139",
        "name": "Prospect Street",
        "hours": "7:00am to 10:30pm, 7 days a week"
    },
    {
        "phone": "781.376.9600",
        "full_address": "400 Cambridge Rd., Woburn, MA 01801",
        "name": "Woburn",
        "hours": "8am to 9pm seven days a week"
    },
    {
        "phone": "617.723.0004",
        "full_address": "181 Cambridge St, Boston, MA 02114",
        "name": "Charles River Plaza",
        "hours": "Open 7 am to 10 pm seven days a week."
    },
    {
        "phone": "781-776-4300",
        "full_address": "100 Market Street, Lynnfield, MA 01940",
        "name": "Lynnfield",
        "hours": "Store open 8am \u2013 10pm seven days a week. Coffee and juice bar window opens at 7 am. Coffee and juice bar closes at 9 pm."
    },
    {
        "phone": "617.738.8187",
        "full_address": "15 Washington Street, Brighton, MA 02135",
        "name": "Brighton",
        "hours": "8:00am to 10:00pm - Seven days a week."
    },
    {
        "phone": "617.876.6990",
        "full_address": "340 River St, Cambridge, MA 02139",
        "name": "River Street",
        "hours": "8:00 am to 10:00 pm. Seven days a week."
    },
    {
        "phone": "413.586.9932",
        "full_address": "327 Russell St, Hadley, MA 01035",
        "name": "Hadley",
        "hours": "8AM - 10PM, Seven Days a Week"
    },
    {
        "phone": "781.235.7262",
        "full_address": "442 Washington Street, Wellesley, MA 02482",
        "name": "Wellesley",
        "hours": "7am to 9pm Seven days a week."
    },
    {
        "phone": "617-337-9700",
        "full_address": "51 Austin St., Charlestown, MA 02129",
        "name": "Charlestown",
        "hours": "7:30am to 10pm seven days a week"
    },
    {
        "phone": "(781) 606-3400",
        "full_address": "880 Main Street, Melrose, MA 02176-2346",
        "name": "Melrose",
        "hours": "8am to 9pm. Seven days a week"
    },
    {
        "phone": "781-329-7100",
        "full_address": "300 Legacy Place, Dedham, MA 02026",
        "name": "Dedham",
        "hours": "8am to 10pm 7 Days A Week "
    },
    {
        "phone": "978.749.6664",
        "full_address": "40 Railroad St., Andover, MA 01810",
        "name": "Andover",
        "hours": "Open 8am to 9pm, seven days a week. HOLIDAY HOURS: 11/22 7am-10pm, 11/23 7am-10pm, CLOSED ON THANKSGIVING"
    },
    {
        "phone": "781-277-5200",
        "full_address": "35 Pleasant Street, South Weymouth, MA 02190",
        "name": "South Weymouth",
        "hours": "8AM to 9PM. Seven days a week"
    },
    {
        "phone": "617-904-1000",
        "full_address": "348 Harrison Avenue, Boston, MA 02118",
        "name": "South End",
        "hours": "8:00am to 10:00pm seven days a week. Coffee Bar opens at 7:00am."
    },
    {
        "phone": "617.969.1141",
        "full_address": "916 Walnut St, Newton, MA 02461",
        "name": "Newton",
        "hours": "8 AM to 10 PM 7 Days A Week"
    },
    {
        "phone": "781.741.8050",
        "full_address": "94 Derby Street, Hingham, MA 02043",
        "name": "Hingham",
        "hours": "8AM to 10PM. Seven days a week               "
    },
    {
        "phone": "508-418-5900",
        "full_address": "990 Iyannough Road, Hyannis, MA 02601",
        "name": "Hyannis",
        "hours": "8AM to 9PM. Seven days a week"
    },
    {
        "phone": "248.371.1400",
        "full_address": "2918 Walton Blvd, Rochester Hills, MI 48309",
        "name": "Rochester Hills",
        "hours": "8am to 10pm seven days a week"
    },
    {
        "phone": "(313) 576-5300",
        "full_address": "115 Mack Ave., Detroit, MI 48201",
        "name": "Detroit",
        "hours": "8am to 10pm Seven Days a Week"
    },
    {
        "phone": "517-319-2000",
        "full_address": "2750 E. Grand River Ave., East Lansing, MI 48823",
        "name": "East Lansing",
        "hours": "8:00am - 10:00pm Seven days a week"
    },
    {
        "phone": "248.538.4600",
        "full_address": "7350 Orchard Lake Road, West Bloomfield, MI 48322",
        "name": "West Bloomfield",
        "hours": "8am to 10pm seven days a week"
    },
    {
        "phone": "734.975.4500",
        "full_address": "3135 Washtenaw Ave, Ann Arbor, MI 48104",
        "name": "Ann Arbor",
        "hours": "8am to 10pm seven days a week."
    },
    {
        "phone": "248.649.9600",
        "full_address": "2880 West Maple Rd, Troy, MI 48084",
        "name": "Troy",
        "hours": "8am to 10pm seven days a week"
    },
    {
        "phone": "734.997.7500",
        "full_address": "990 W. Eisenhower Parkway, Ann Arbor, MI 48103",
        "name": "Cranbrook",
        "hours": "8am to 10pm seven days a week"
    },
    {
        "phone": "952-830-3500",
        "full_address": "7401 France Ave S, Edina, MN 55435",
        "name": "Edina",
        "hours": "8AM - 10PM - Seven days a week."
    },
    {
        "phone": "612.927.8141",
        "full_address": "3060 Excelsior Blvd, Minneapolis, MN 55416",
        "name": "Lake Calhoun",
        "hours": "8AM to 10PM - Seven days a week "
    },
    {
        "phone": "952-797-5600",
        "full_address": "1001 Plymouth Road, Minnetonka, MN 55305",
        "name": "Minnetonka",
        "hours": "8AM to 10PM - Seven days a week"
    },
    {
        "phone": "612.313.7100",
        "full_address": "222 Hennepin Avenue, Minneapolis, MN 55401",
        "name": "Hennepin",
        "hours": "7AM-10PM (Daily)"
    },
    {
        "phone": "651.690.0197",
        "full_address": "1575 Selby Ave., St Paul, MN 55104",
        "name": "St Paul",
        "hours": "8AM to 10PM. Seven days a week "
    },
    {
        "phone": "(763) 416-7300",
        "full_address": "12201 Elm Creek Blvd N, Maple Grove, MN 55369",
        "name": "Maple Grove",
        "hours": "8AM - 10PM - Seven days a week."
    },
    {
        "phone": "601.608.0405",
        "full_address": "4500 I-55 North Suite 99, Jackson, MS 39211",
        "name": "Jackson",
        "hours": "Monday - Sunday 8am to 9pm! Our Merchant of Vino Wine & Spirits Store is open from 10am to 9pm Mon-Sat. "
    },
    {
        "phone": "314-474-7300",
        "full_address": "4577 West Pine Blvd, St. Louis, MO 63108",
        "name": "Central West End",
        "hours": "8:00am - 10:00pm Seven days a week"
    },
    {
        "phone": "636.527.1160",
        "full_address": "1160 Town and Country Crossing, Town and Country, MO 63017",
        "name": "Town and Country",
        "hours": "8am to 9pm"
    },
    {
        "phone": "314.968.7744",
        "full_address": "1601 S. Brentwood Blvd, Saint Louis, MO 63144",
        "name": "Galleria",
        "hours": "8am to 10pm seven days a week   "
    },
    {
        "phone": "402.486.6000",
        "full_address": "6055 O Street, Lincoln, NE 68510",
        "name": "Lincoln",
        "hours": "Fall operating hours are MON-SAT 8am to 10pm, and Sundays 9am to 9pm.  "
    },
    {
        "phone": "402.393.1200",
        "full_address": "10020 Regency Circle, Omaha, NE 68114",
        "name": "Omaha",
        "hours": "8am to 10pm Monday-Saturday, 8am to 9pm on Sundays"
    },
    {
        "phone": "775.852.8023",
        "full_address": "6139 S. Virginia Street, Reno, NV 89502",
        "name": "Reno",
        "hours": "8:00 am to 10:00 pm. Seven days a week."
    },
    {
        "phone": "702.361.8183",
        "full_address": "100 S. Green Valley Pkwy, Henderson, NV 89012",
        "name": "Henderson",
        "hours": "8 A.M. to 10 P.M. Daily "
    },
    {
        "phone": "702.254.8655",
        "full_address": "8855 West Charleston Blvd., Las Vegas, NV 89117",
        "name": "Fort Apache",
        "hours": "8 A.M. to 10 P.M. Daily"
    },
    {
        "phone": "702.942.1500",
        "full_address": "7250 W. Lake Mead Blvd., Las Vegas, NV 89128",
        "name": "Tenaya",
        "hours": "8 A.M. to 10 P.M. Daily "
    },
    {
        "phone": "702.589.7711",
        "full_address": "6689 Las Vegas Blvd., Las Vegas, NV 89119",
        "name": "Las Vegas Blvd",
        "hours": "8 A.M. to 10 P.M. Daily "
    },
    {
        "phone": "603-218-1900",
        "full_address": "121 South River Rd, Bedford, NH 03110",
        "name": "Bedford New Hampshire",
        "hours": "8:00am - 10:00pm Seven days a week"
    },
    {
        "phone": "603.318.7550",
        "full_address": "255 Amherst Street, Nashua, NH 03063",
        "name": "Nashua",
        "hours": "8:00 a.m. to 10:00 p.m. Seven days a week. See below for special winter or holiday hours."
    },
    {
        "phone": "856-651-5271",
        "full_address": "1558 North Kings Highway, Cherry Hill, NJ 08034",
        "name": "Cherry Hill",
        "hours": "7:00am - 10:00pm Seven days a week"
    },
    {
        "phone": "973.746.5110",
        "full_address": "701 Bloomfield Ave, Montclair, NJ 07042",
        "name": "Montclair",
        "hours": "8am to 10pm seven days a week"
    },
    {
        "phone": "973.669.3196",
        "full_address": "235 Prospect Ave, West Orange, NJ 07052",
        "name": "West Orange",
        "hours": "8am to 10pm seven days a week"
    },
    {
        "phone": "856.797.1115",
        "full_address": "940 Route 73 North, Marlton, NJ 08053",
        "name": "Marlton",
        "hours": "7am to 10pm Seven days a week."
    },
    {
        "phone": "201.941.4000",
        "full_address": "905 River Road, Edgewater, NJ 07020",
        "name": "Edgewater",
        "hours": "8am to 10pm seven days a week"
    },
    {
        "phone": "973-385-1900",
        "full_address": "110 Washington Street, Morristown, NJ 07960",
        "name": "Morristown",
        "hours": "8:00am to 10:00pm. Seven days a week."
    },
    {
        "phone": "908.688.1455",
        "full_address": "2245 Springfield Ave., Vauxhall, NJ 07088",
        "name": "Millburn - Union",
        "hours": "8am to 10pm seven days a week"
    },
    {
        "phone": "732.758.1688",
        "full_address": "471 State Route 35 North, Red Bank, NJ 07701-5036",
        "name": "Middletown",
        "hours": "8am to 10pm. Seven days a week."
    },
    {
        "phone": "609.799.2919",
        "full_address": "3495 US Route 1 South, Princeton, NJ 08540",
        "name": "Princeton",
        "hours": "8am-10pm seven days a week    "
    },
    {
        "phone": "732.359.3400",
        "full_address": "1933 State Road 35, Wall, NJ 07719",
        "name": "Spring Lake Wall",
        "hours": "8:00am - 10:00pm Seven days a week"
    },
    {
        "phone": "732-792-5900",
        "full_address": "113 Route 9 South, Marlboro, NJ 07726",
        "name": "Marlboro",
        "hours": "8:00 a.m. to 10:00 p.m. Seven days a week."
    },
    {
        "phone": "973.822.8444",
        "full_address": "222 Main St, Madison, NJ 07940",
        "name": "Rose City",
        "hours": "8am to 10pm seven days a week"
    },
    {
        "phone": "201.226.1244",
        "full_address": "300 Bergen Town Center, Paramus, NJ 07652",
        "name": "Paramus",
        "hours": "8am to 10pm seven days a week"
    },
    {
        "phone": "201-367-9099",
        "full_address": "45 Vervalen Street, Closter, NJ 07624",
        "name": "Closter",
        "hours": "8:00am - 10:00pm Seven days a week"
    },
    {
        "phone": "732.381.1010",
        "full_address": "1255 Raritan Road Unit 150, Clark, NJ 07066",
        "name": "Clark",
        "hours": "8:00am to 10:00pm Seven Days a Week"
    },
    {
        "phone": "201.670.0383",
        "full_address": "44 Godwin Ave, Ridgewood, NJ 07450",
        "name": "Ridgewood",
        "hours": "8AM to 10PM Seven days a week. Cafe hours 7AM to 9PM."
    },
    {
        "phone": "505.983.5333",
        "full_address": "1090 S. Saint Francis Drive, Santa Fe, NM 87505",
        "name": "Santa Fe (St. Francis)",
        "hours": "Open 7:30am to 9pm, daily."
    },
    {
        "phone": "505.856.0474",
        "full_address": "5815 Wyoming Blvd NE, Albuquerque, NM 87109",
        "name": "Academy",
        "hours": "8am to 10pm, daily"
    },
    {
        "phone": "505.992.1700",
        "full_address": "753 Cerrillos Rd, Santa Fe, NM 87505",
        "name": "Santa Fe (Cerrillos)",
        "hours": "Open 7:30am to 10pm, daily."
    },
    {
        "phone": "505.260.1366",
        "full_address": "2103 Carlisle Boulevard NE, Albuquerque, NM 87110",
        "name": "Indian School Plaza",
        "hours": "Open 7am to 10pm, daily."
    },
    {
        "phone": "212.673.5388",
        "full_address": "4 Union Square South, New York, NY 10003",
        "name": "Union Square",
        "hours": "7:00am to 11pm Seven Days a Week "
    },
    {
        "phone": "646-891-3888",
        "full_address": "1551 3rd Ave, New York, NY 10128",
        "name": "Upper East Side",
        "hours": "7:00 am - 11:00 pm.  Seven days a week."
    },
    {
        "phone": "516.932.1733",
        "full_address": "429 North Broadway, Jericho, NY 11753-2106",
        "name": "Jericho",
        "hours": "7:30AM to 10PM , seven days a week."
    },
    {
        "phone": "212.349.6555",
        "full_address": "270 Greenwich Street, New York, NY 10007",
        "name": "Tribeca",
        "hours": "7am to 11pm seven days a week"
    },
    {
        "phone": "518-621-5300",
        "full_address": "1425 Central Ave, Albany, NY 12205",
        "name": "Albany",
        "hours": "8:00 am to 10:00 pm. Seven days a week."
    },
    {
        "phone": "631.588.1466",
        "full_address": "Lake Grove Commons, Lake Grove, NY 11755",
        "name": "Lake Grove ",
        "hours": "Join us every day, 8AM - 10PM"
    },
    {
        "phone": "212.924.5969",
        "full_address": "250 7th Ave, New York, NY 10001",
        "name": "Chelsea",
        "hours": "7:00am to 11pm seven days a week, Whole Body 8am to 10pm"
    },
    {
        "phone": "(718) 734-2321",
        "full_address": "238 Bedford Ave, Brooklyn, NY 11249",
        "name": "Williamsburg",
        "hours": "8:00am - 11:00pm Seven days a week"
    },
    {
        "phone": "212.823.9600",
        "full_address": "10 Columbus Circle, New York, NY 10019",
        "name": "Columbus Circle",
        "hours": "7:00am to 11pm Seven days a week"
    },
    {
        "phone": "914-708-1985",
        "full_address": "575 Boston Post Road, Port Chester, NY 10573",
        "name": "Port Chester",
        "hours": " 8:00 am - 10:00 pm Seven days a week. "
    },
    {
        "phone": "212.420.1320",
        "full_address": "95 East Houston St, New York, NY 10002",
        "name": "Bowery",
        "hours": "8:00 a.m to 11:00 p.m Monday-Sunday "
    },
    {
        "phone": "914.378.8090",
        "full_address": "Westchester's Ridge Hill, Yonkers, NY 10710",
        "name": "Yonkers",
        "hours": "8am-10pm Daily"
    },
    {
        "phone": "212.222.6160",
        "full_address": "808 Columbus Avenue, New York, NY 10025",
        "name": "Upper West Side",
        "hours": "MAIN STORE: 7:30am to 11pm, Daily. WINE STORE: Mon to Thurs 9am to 10pm / Fri & Sat 9am to 11pm / Sun 12pm to 9pm. "
    },
    {
        "phone": "718-907-3622",
        "full_address": "214 3rd Street, Brooklyn, NY 11215",
        "name": "Third and 3rd (Brooklyn)",
        "hours": "Store Hours: 8 am to 11 pm, daily. Coffee Bar 7 am to 9 pm, daily & Self Serve Bakery 7 am, daily."
    },
    {
        "phone": "646-497-1222",
        "full_address": "226 East 57th Street, New York, NY 10022",
        "name": "Midtown East (E 57th St)",
        "hours": "7:30am to 11pm. Seven days a week."
    },
    {
        "phone": "914.288.1300",
        "full_address": "110 Bloomingdale Road, White Plains, NY 10605-1503",
        "name": "White Plains",
        "hours": "8:00 am to 10:00 pm seven days a week"
    },
    {
        "phone": "516.869.8900",
        "full_address": "2101 Northern Blvd, Manhasset, NY 11030",
        "name": "Manhasset",
        "hours": "7:30am to 10:00pm, seven days a week"
    },
    {
        "phone": "919.828.5805",
        "full_address": "3540 Wade Ave, Raleigh, NC 27607",
        "name": "Raleigh",
        "hours": "7am to 10pm "
    },
    {
        "phone": "980.213.2400",
        "full_address": "6610 Fairview Rd., Charlotte, NC 28210",
        "name": "Charlotte",
        "hours": "8 am to 10 pm seven days a week"
    },
    {
        "phone": "336.398.2880",
        "full_address": "3202 West Friendly Avenue, Greensboro, NC 27408-7604",
        "name": "Greensboro Friendly",
        "hours": "8am to 9pm (Monday - Sunday)"
    },
    {
        "phone": "336.722.9233",
        "full_address": "41 Miller Street, Winston-Salem, NC 27104",
        "name": "Winston-Salem",
        "hours": "7am to 9pm (Monday - Sunday)"
    },
    {
        "phone": "704-765-3735",
        "full_address": "9129 Sam Furr Rd., Huntersville, NC 28078",
        "name": "Lake Norman",
        "hours": "8:00 a.m. to 9:00 p.m. Seven days a week."
    },
    {
        "phone": "828-239-9604",
        "full_address": "4 South Tunnel Rd., Asheville, NC 28805",
        "name": "Asheville",
        "hours": "Every day: 8 a.m. to 10 p.m. "
    },
    {
        "phone": "919.816.8830",
        "full_address": "102B New Waverly Place, Cary, NC 27518",
        "name": "Cary",
        "hours": "7:30am to 9pm seven days a week "
    },
    {
        "phone": "828.254.5440",
        "full_address": "70 Merrimon Ave, Asheville, NC 28801",
        "name": "Greenlife Grocery Asheville",
        "hours": "7:30am to 9pm, Seven days a week"
    },
    {
        "phone": "919.286.2290",
        "full_address": "621 Broad Street, Durham, NC 27705",
        "name": "Durham",
        "hours": "7am to 9pm seven days a week (store and caf\u00e9)"
    },
    {
        "phone": "910.777.2499",
        "full_address": "3804 Oleander Drive, Wilmington, NC 28403",
        "name": "Wilmington",
        "hours": "8:00 a.m. to 9:00 p.m. Seven days a week."
    },
    {
        "phone": "919.354.0350",
        "full_address": "8710 Six Forks Rd, Raleigh, NC 27615",
        "name": "North Raleigh",
        "hours": "7am to 9pm seven days a week  "
    },
    {
        "phone": "919.968.1983",
        "full_address": "81 South Elliot Road, Chapel Hill, NC 27514",
        "name": "Chapel Hill",
        "hours": "7 AM to 10 PM seven days a week (store and caf\u00e9)"
    },
    {
        "phone": "937.999.6880",
        "full_address": "1050 Miamisburg Centerville Road, Dayton, OH 45458",
        "name": "Dayton",
        "hours": "Sunday - Thursday: 8am-9pm Friday & Saturday: 8am-10pm"
    },
    {
        "phone": "216.464.9403",
        "full_address": "27249 Chagrin Blvd, Woodmere, OH 44122",
        "name": "Chagrin",
        "hours": "8 AM - 10 PM, daily"
    },
    {
        "phone": "614.536.0570",
        "full_address": "4100 Easton Gateway Drive, Columbus, OH 43219",
        "name": "Easton",
        "hours": "Sunday-Thursday: 8 am-9 pm Friday & Saturday: 8 am-10 pm"
    },
    {
        "phone": "614.481.3400",
        "full_address": "1555 W. Lane Ave, Upper Arlington, OH 43221",
        "name": "Upper Arlington",
        "hours": "8 AM to 9 PM Daily, The Social opens every morning at 7 am"
    },
    {
        "phone": "513.531.8015",
        "full_address": "2693 Edmondson Rd., Cincinnati, OH 45209",
        "name": "Cincinnati",
        "hours": "8am to 10pm seven days a week"
    },
    {
        "phone": "614.760.5556",
        "full_address": "3670 W. Dublin-Granville Rd, Columbus, OH 43235",
        "name": "Columbus",
        "hours": "8 am - 10pm seven days a week"
    },
    {
        "phone": "440.596.3440",
        "full_address": "19607 Detroit Road, Rocky River, OH 44116",
        "name": "Rocky River",
        "hours": "8:00am to 9:00pm Seven days a week"
    },
    {
        "phone": "216.932.3918",
        "full_address": "13998 Cedar Rd., University Heights, OH 44118",
        "name": "Cedar Center",
        "hours": "8 AM - 10 PM, daily. "
    },
    {
        "phone": "513.398.9358",
        "full_address": "5805 Deerfield Boulevard, Mason, OH 45040",
        "name": "Mason",
        "hours": "8:00 am to 10:00 pm Seven Days a Week"
    },
    {
        "phone": "405.879.3500",
        "full_address": "6001 N. Western Ave., Oklahoma City, OK 73118",
        "name": "Oklahoma City",
        "hours": "8am\u201310pm seven days a week. Coffee Bar/Breakfast open at 7am."
    },
    {
        "phone": "918-712-7555",
        "full_address": "1401 East 41st Street, Tulsa, OK 74105",
        "name": "Brookside",
        "hours": "Open seven days a week, 7:00 am to 10:00 pm."
    },
    {
        "phone": "918-879-0493",
        "full_address": "9136 South Yale Avenue, Tulsa, OK 74137",
        "name": "Yale",
        "hours": "Open seven days a week. 8:00 am to 10:00 pm. Coffee bar and Juice Garage open at 7:00 am."
    },
    {
        "phone": "503.232.6601",
        "full_address": "2825 East Burnside St., Portland, OR 97214",
        "name": "Laurelhurst",
        "hours": "7am to 10pm Daily"
    },
    {
        "phone": "(503) 288 - 3414",
        "full_address": "3535 NE 15th Ave., Portland, OR 97212",
        "name": "Fremont - Oregon",
        "hours": "7am to 10pm Daily"
    },
    {
        "phone": "541-434-8820",
        "full_address": "353 E Broadway, Eugene, OR 97401",
        "name": "Eugene",
        "hours": "7:00am - 10:00pm Seven days a week. "
    },
    {
        "phone": "503-525-4343",
        "full_address": "1210 NW Couch St, Portland, OR 97209",
        "name": "Pearl District Portland",
        "hours": " 7am to 10pm, seven days a week. Accessible via TriMet route 20."
    },
    {
        "phone": "503.284.2644",
        "full_address": "4301 NE Sandy Blvd., Portland, OR 97213",
        "name": "Hollywood",
        "hours": "7am to 10pm Daily"
    },
    {
        "phone": "(503) 645-9200",
        "full_address": "19440 NW Cornell Rd., Hillsboro, OR 97124",
        "name": "Tanasbourne",
        "hours": "Open Daily, 8am \u2013 10pm. "
    },
    {
        "phone": "971-371-7000",
        "full_address": "12220 SW Scholls Ferry Road, Tigard, OR 97223",
        "name": "Greenway",
        "hours": "Open Daily, 7am \u2013 10pm."
    },
    {
        "phone": "541.389.0151",
        "full_address": "2610 Highway 20, Bend, OR 97701-6261",
        "name": "Bend",
        "hours": "8 a.m. to 9 p.m. seven days a week"
    },
    {
        "phone": "541-434-8820",
        "full_address": "353 E Broadway, Eugene, OR 97401",
        "name": "Eugene",
        "hours": "7:00am - 10:00pm Seven days a week. "
    },
    {
        "phone": "503-639-6500",
        "full_address": "7380 SW Bridgeport Rd., Tigard, OR 97224",
        "name": "Bridgeport",
        "hours": "Open Daily, 7am-10pm; Allegro Coffee Bar, 7am-6pm; Juicery, 7am-7pm; Butcher's Brother, 11am-8pm."
    },
    {
        "phone": "610-358-1133",
        "full_address": "475 Wilmington, Glen Mills, PA 19342",
        "name": "Glen Mills",
        "hours": "7am to 10pm seven days a week"
    },
    {
        "phone": "724.940.6100",
        "full_address": "10576 Perry Highway, Wexford, PA 15090",
        "name": "Wexford",
        "hours": "8 am - 9 pm daily"
    },
    {
        "phone": "215.733.9788",
        "full_address": "929 South Street, Philadelphia, PA 19147",
        "name": "South Street",
        "hours": "7am to 10pm seven days a week"
    },
    {
        "phone": "610.832.0010",
        "full_address": "500 W. Germantown Pike, Plymouth Meeting, PA 19462",
        "name": "Plymouth Meeting",
        "hours": "7am to 10pm Daily"
    },
    {
        "phone": "412.441.7960",
        "full_address": "5880 Centre Ave, Pittsburgh, PA 15206",
        "name": "Pittsburgh",
        "hours": "8am to 10pm seven days a week"
    },
    {
        "phone": "215.646.6300",
        "full_address": "1210 Bethlehem Pike, North Wales, PA 19454",
        "name": "North Wales",
        "hours": "8:00 am to 9:00 pm. Seven days a week"
    },
    {
        "phone": "215.481.0800",
        "full_address": "1575 The Fairway, Jenkintown, PA 19046",
        "name": "Jenkintown",
        "hours": "8am to 9pm daily"
    },
    {
        "phone": "484-506-2159",
        "full_address": "750 N. Krocks Road, Allentown, PA 18106",
        "name": "Allentown",
        "hours": "7 am - 10 pm, 7 days a week"
    },
    {
        "phone": "610.688.9400",
        "full_address": "821 W. Lancaster Ave, Wayne, PA 19087",
        "name": "Devon",
        "hours": "8a to 9p. Seven days a week"
    },
    {
        "phone": "610.896.3737",
        "full_address": "15 East Wynnewood Rd, Wynnewood, PA 19096",
        "name": "Wynnewood",
        "hours": "8 am - 10 pm, 7 days a week"
    },
    {
        "phone": "215-557-0015",
        "full_address": "2101 Pennsylvania Avenue, Philadelphia, PA 19130",
        "name": "Philly Center City",
        "hours": "7:00 am - 11:00 pm Seven days a week; Coffee bar opens at 6 am"
    },
    {
        "phone": "401.621.5990",
        "full_address": "601 N Main St, Providence, RI 02904",
        "name": "University",
        "hours": "8am to 10pm seven days a week "
    },
    {
        "phone": "401.272.1690",
        "full_address": "261 Waterman St, Providence, RI 02906",
        "name": "Providence",
        "hours": "8am to 9pm                                       Seven days a week"
    },
    {
        "phone": "(401) 942-7600",
        "full_address": "151 Sockanosset Cross Road, Cranston, RI 02920",
        "name": "Garden City Center",
        "hours": "8am to 9pm seven days a week"
    },
    {
        "phone": "843.971.7240",
        "full_address": "923 Houston Northcutt Blvd, Mount Pleasant, SC 29464",
        "name": "Charleston",
        "hours": "8am to 9pm seven days a week"
    },
    {
        "phone": "803-509-6700",
        "full_address": "702 Cross Hill Rd + Fort Jackson Blvd, Columbia, SC 29205-2084",
        "name": "Columbia",
        "hours": "8:00 a.m. to 9:00 p.m. daily"
    },
    {
        "phone": "864.335.2300",
        "full_address": "1140 Woodruff Road, Greenville, SC 29607",
        "name": "Greenville",
        "hours": "8:00am-10:00pm Seven days a week."
    },
    {
        "phone": "803-509-6700",
        "full_address": "702 Cross Hill Rd + Fort Jackson Blvd, Columbia, SC 29205-2084",
        "name": "Columbia",
        "hours": "8:00 a.m. to 9:00 p.m. daily"
    },
    {
        "phone": "615.550.5660",
        "full_address": "1566 West McEwen Drive, Franklin, TN 37067",
        "name": "McEwen",
        "hours": "Monday-Saturday: 7am to 10pm & Sunday: 8am to 9pm Thanksgiving Day 7 AM - 3 PM"
    },
    {
        "phone": "901.896.3245 ",
        "full_address": "7825 U.S. Highway 72, Germantown, TN 38138-3906",
        "name": "Germantown",
        "hours": "8:00am to 9:00pm, Monday - Sunday"
    },
    {
        "phone": "423.702.7300",
        "full_address": "301 Manufacturers Rd, Chattanooga, TN 37405",
        "name": "Chattanooga",
        "hours": "Monday - Saturday 7:30 a.m.- 9:00 p.m.  Sunday 8:30 a.m. - 9:00 p.m. "
    },
    {
        "phone": "865.291.6400",
        "full_address": "6730 Papermill Drive, Knoxville, TN 37919",
        "name": "Knoxville",
        "hours": "8:00 am to 9:00 pm"
    },
    {
        "phone": "615.440.5100",
        "full_address": "4021 Hillsboro Pike, Nashville, TN 37215",
        "name": "Green Hills",
        "hours": "Monday-Sunday 8 AM-10 PM  Thanksgiving week: Monday-Wednesday 7:30 AM - 10 PM Thanksgiving Day 8 AM - 3 PM"
    },
    {
        "phone": "901-969-4368",
        "full_address": "5014 Poplar Avenue, Memphis, TN 38117",
        "name": "Poplar Avenue",
        "hours": " 7:30 am-10:00 pm Monday - Saturday, 7:30am-9:00pm Sunday "
    },
    {
        "phone": "281.491.5577",
        "full_address": "15900 Southwest Freeway, Sugar Land, TX 77478",
        "name": "Sugar Land",
        "hours": "7am to 10pm seven days a week"
    },
    {
        "phone": "(972) 612-6729",
        "full_address": "2201 Preston Road, Plano, TX 75093",
        "name": "Plano",
        "hours": "7am - 10pm 7 days a week "
    },
    {
        "phone": "214-854-3334",
        "full_address": "5100 Belt Line Road, Suite 1012, Addison, TX 75254",
        "name": "Addison",
        "hours": "7am\u201310pm seven days a week "
    },
    {
        "phone": "713.284.1260",
        "full_address": "701 Waugh Drive, Houston, TX 77019",
        "name": "Montrose",
        "hours": "7am to 10pm Monday - Sunday "
    },
    {
        "phone": "(512) 358-2460",
        "full_address": "4301 W. William Cannon, Austin, TX 78749",
        "name": "Arbor Trails",
        "hours": "8am\u201310pm seven days a week"
    },
    {
        "phone": "682-316-8040",
        "full_address": "3720 Vision Drive, Fort Worth, TX 76109",
        "name": "Fort Worth",
        "hours": "8am\u201310pm / Seven days a week"
    },
    {
        "phone": " 214.273.0902",
        "full_address": "1411 E. Renner Road, Richardson, TX 75082",
        "name": "Cityline",
        "hours": "8:00am - 10:00pm Seven days a week"
    },
    {
        "phone": "210-408-3110",
        "full_address": "18403 Blanco Road, San Antonio, TX 78258",
        "name": "Vineyard",
        "hours": "Coffee Bar open 7am-8pm; Store open 8am-10pm;                     Bar Blanco open 3pm- 9:30pm"
    },
    {
        "phone": "210.826.4676",
        "full_address": "255 E. Basse Rd, Ste. 130, San Antonio, TX 78209",
        "name": "Alamo Quarry",
        "hours": "8am to 10pm, daily"
    },
    {
        "phone": "214.361.8887",
        "full_address": "11700 Preston Rd, Dallas, TX 75230",
        "name": "Forest",
        "hours": "7am\u201310pm, seven days a week"
    },
    {
        "phone": "713.667.4090",
        "full_address": "4004 Bellaire Blvd, Houston, TX 77025",
        "name": "Bellaire",
        "hours": "7am to 10pm. Every day"
    },
    {
        "phone": "214.520.7993",
        "full_address": "4100 Lomo Alto Dr, Highland Park, TX 75219",
        "name": "Highland Park",
        "hours": "7am to 10pm, seven days a week                                                     "
    },
    {
        "phone": "512.542.2200",
        "full_address": "525 N Lamar Blvd., Austin, TX 78703",
        "name": "Lamar",
        "hours": "7am to 10pm seven days a week. Coffee bar and taco station open at 6am."
    },
    {
        "phone": "512.206.2730",
        "full_address": "12601 Hill Country Blvd, Bee Cave, TX 78738",
        "name": "Bee Cave",
        "hours": "8am to 10pm every day"
    },
    {
        "phone": "214.824.1744",
        "full_address": "2118 Abrams Road, Dallas, TX 75214",
        "name": "Lakewood",
        "hours": "7am\u201310pm. Seven days a week. "
    },
    {
        "phone": "281.803.6396",
        "full_address": "10133 Louetta Road, Houston, TX 77070",
        "name": "Champions",
        "hours": "7am\u201310pm seven days a week"
    },
    {
        "phone": "(512) 831-3981",
        "full_address": "11920 Domain Drive, Austin, TX 78758",
        "name": "Domain",
        "hours": "8am\u201310pm every day"
    },
    {
        "phone": "281.769.5670",
        "full_address": "6601 S. Fry Road, Katy, TX 77494",
        "name": "Katy",
        "hours": "7am\u201310pm 7 days a week; coffee bar opens at 7am"
    },
    {
        "phone": "469-518-5814",
        "full_address": "2510 McKinney Ave, Dallas, TX 75201",
        "name": "Uptown Dallas",
        "hours": "7:00am to 10:00pm. Seven days a week. "
    },
    {
        "phone": "(832) 246-5600",
        "full_address": "1925 Hughes Landing Blvd., The Woodlands, TX 77380",
        "name": "The Woodlands",
        "hours": " 7am\u201310pm. Seven days a week. "
    },
    {
        "phone": "972.538.9710",
        "full_address": "4041 Waller Creek, Highland Village, TX 75077",
        "name": "Highland Village",
        "hours": "8am - 10pm 7 days a week. Coffee & Juice Bar open at 7am."
    },
    {
        "phone": "(972) 549-4090",
        "full_address": "The Village at Fairview, Fairview, TX 75069",
        "name": "Fairview",
        "hours": "7:30am - 10pm Daily"
    },
    {
        "phone": "713.784.7776",
        "full_address": "11041 Westheimer Rd., Houston, TX 77042",
        "name": "Westchase",
        "hours": "7:30am to 10pm. Every day"
    },
    {
        "phone": "915-236-1420",
        "full_address": "100 Pitt Street, El Paso, TX 79912",
        "name": "El Paso",
        "hours": "7:00am - 10:00pm Seven days a week"
    },
    {
        "phone": "817.461.9362",
        "full_address": "801 East Lamar Blvd., Arlington, TX 76011",
        "name": "Arlington TX",
        "hours": "Store Hours: 7:30am\u201310pm Sunday-Saturday"
    },
    {
        "phone": "713.520.1937",
        "full_address": "2955 Kirby Dr, Houston, TX 77098",
        "name": "Kirby",
        "hours": "7am to 10pm every day"
    },
    {
        "phone": "713-346-0537",
        "full_address": "1700 Post Oak Blvd, Houston, TX 77056",
        "name": "Post Oak",
        "hours": "7am to 10pm. Seven days a week. "
    },
    {
        "phone": "512.345.5003",
        "full_address": "9607 Research Blvd., Austin, TX 78759",
        "name": "Gateway",
        "hours": "Open Daily: 8AM-10PM"
    },
    {
        "phone": "713.789.4477",
        "full_address": "1407 South Voss Rd, Houston, TX 77057",
        "name": "Voss",
        "hours": "7am to 10pm. Every day"
    },
    {
        "phone": "817.918.3821",
        "full_address": "4801 Colleyville Blvd, Colleyville, TX 76034",
        "name": "Colleyville",
        "hours": "8am to 10pm Coffee/Juice bar until 8pm"
    },
    {
        "phone": "214.342.4850",
        "full_address": "8190 Park Lane, Suite 351, Dallas, TX 75231",
        "name": "Park Lane",
        "hours": "7am to 10pm. Seven days a week. "
    },
    {
        "phone": "801.924.9060",
        "full_address": "544 South 700 East, Salt Lake City, UT 84102",
        "name": "Trolley Square",
        "hours": "Open 7am to 10pm, daily."
    },
    {
        "phone": "801.733.9455",
        "full_address": "6930 S. Highland Drive, Cottonwood Heights, UT 84121",
        "name": "Cottonwood Heights",
        "hours": "Open 8am-10pm, daily."
    },
    {
        "phone": "801.359.7913",
        "full_address": "1131 E. Wilmington Ave., Salt Lake City, UT 84106",
        "name": "Sugar House",
        "hours": "Open 7:30am to 10pm, daily."
    },
    {
        "phone": "435.575.0200",
        "full_address": "1748 W Redstone Center Dr., Park City, UT 84098",
        "name": "Park City",
        "hours": "Open 8am-10pm, daily."
    },
    {
        "phone": "801-676-2200",
        "full_address": "11479 S. State Street, Unit B, Draper, UT 84020",
        "name": "South Valley",
        "hours": "Open 8am-9pm, daily."
    },
    {
        "phone": "703.644.2500",
        "full_address": "8402 Old Keene Mill Rd, Springfield, VA 22152",
        "name": "Springfield",
        "hours": "8am to 9pm seven days a week"
    },
    {
        "phone": "571.223.4440",
        "full_address": "19800 Belmont Chase Drive, Ashburn, VA 20147",
        "name": "Ashburn",
        "hours": "7:00am to 10:00pm Seven days a week "
    },
    {
        "phone": "434.973.4900",
        "full_address": "1797 Hydraulic Road, Charlottesville, VA 22901",
        "name": "Charlottesville",
        "hours": "7:00am to 10:00pm. Seven days a week."
    },
    {
        "phone": "703.222.2058",
        "full_address": "4501 Market Commons Dr, Fairfax, VA 22033",
        "name": "Fair Lakes",
        "hours": "8am to 10pm seven days a week"
    },
    {
        "phone": "703.706.0891",
        "full_address": "1700 Duke St, Alexandria, VA 22314",
        "name": "Old Town",
        "hours": "7am to 10pm, daily"
    },
    {
        "phone": "804.364.4050",
        "full_address": "11173 West Broad Street, Glen Allen, VA 23060",
        "name": "Short Pump",
        "hours": "7am to 10pm seven days a week."
    },
    {
        "phone": "757.947.2460",
        "full_address": "12080 Jefferson Ave., Newport News, VA 23606",
        "name": "Newport News",
        "hours": "8:00 a.m. to 10:00 p.m. Seven days a week. "
    },
    {
        "phone": "703.736.0600",
        "full_address": "11660 Plaza America Dr, Reston, VA 20190",
        "name": "Reston",
        "hours": "Monday thru Friday 7:30AM - 9PM                         Saturday & Sunday 8AM - 9PM                                           "
    },
    {
        "phone": "703.319.2000",
        "full_address": "143 Maple Ave East, Vienna, VA 22180",
        "name": "Vienna",
        "hours": "Open 7:30am to 9:30pm. Seven days a week. Brew & Brau Pub Hours: 11am-9:30pm Last call for food at 8:30pm and alcohol 9:00pm."
    },
    {
        "phone": "703.527.6596",
        "full_address": "2700 Wilson Blvd, Arlington, VA 22201",
        "name": "Arlington VA",
        "hours": "7am to 10:00pm seven days a week"
    },
    {
        "phone": "757-422-0444",
        "full_address": "1800 Laskin Road, Virginia Beach, VA 23454",
        "name": "Virginia Beach",
        "hours": "7 am to 9 pm Seven days a week."
    },
    {
        "phone": "703.448.1600",
        "full_address": "7511 Leesburg Pike, Falls Church, VA 22043",
        "name": "Tysons",
        "hours": "Regular Hours: 8am-10pm, Monday - Sunday"
    },
    {
        "phone": "571.777.3948",
        "full_address": "520 12th St. South, Suite 100, Arlington, VA 22202",
        "name": "Pentagon City",
        "hours": "7 am - 10 pm, 7 days a week - Complimentary 90 minute parking is available in the garage on level G1."
    },
    {
        "phone": "360.714.6820",
        "full_address": "1030 Lakeway Drive, Bellingham, WA 98229",
        "name": "Bellingham Lakeway",
        "hours": "8:00am - 10:00pm Seven days a week"
    },
    {
        "phone": "425.775.1320",
        "full_address": "2800 196th St. SW, Lynnwood, WA 98036",
        "name": "Lynnwood",
        "hours": "Store Hours 7am - 10pm"
    },
    {
        "phone": "253.534.4500",
        "full_address": "3515 Bridgeport Way West, University Place, WA 98466",
        "name": "Chambers Bay",
        "hours": "8:00 am to 10:00 pm. Seven days a week.  "
    },
    {
        "phone": "206.621.9700",
        "full_address": "2210 Westlake Ave, Seattle, WA 98121",
        "name": "South Lake Union",
        "hours": "Store Hours 7am - 10pm"
    },
    {
        "phone": "206.352.5440",
        "full_address": "2001 15th Avenue W, Seattle, WA 98119",
        "name": "Interbay",
        "hours": "Store Hours 7am - 10pm (Coffee Bar Opens 6am)"
    },
    {
        "phone": "360.253.4082",
        "full_address": "815 Southeast 160th Avenue, Vancouver, WA 98683",
        "name": "Mill Plain",
        "hours": "8am - 10pm Daily"
    },
    {
        "phone": "206.985.1500",
        "full_address": "1026 NE 64th Street, Seattle, WA 98115",
        "name": "Roosevelt Square",
        "hours": "Store Hours 7am - 10pm"
    },
    {
        "phone": "425.453.4708",
        "full_address": "10200 NE 4th St., Bellevue, WA 98004",
        "name": "Bellevue Square 365",
        "hours": "8:00 a.m. to 10:00 p.m. Seven days a week."
    },
    {
        "phone": "425.462.1400",
        "full_address": "888 116th Ave NE, Bellevue, WA 98004",
        "name": "Bellevue",
        "hours": "Store Hours 7am - 10pm"
    },
    {
        "phone": "425.881.2600",
        "full_address": "17991 NE Redmond Way, Redmond, WA 98052",
        "name": "Redmond",
        "hours": "Store Hours 7am - 10pm"
    },
    {
        "phone": "608.233.9566",
        "full_address": "3313 University Ave, Madison, WI 53705",
        "name": "Madison",
        "hours": "7:30am-10pm Mon-Sun"
    },
    {
        "phone": "414.223.1500",
        "full_address": "2305 N. Prospect Ave, Milwaukee, WI 53211",
        "name": "Milwaukee",
        "hours": "8am to 10pm seven days a week."
    },
    {
        "phone": "414-808-3600",
        "full_address": "11100 W. Burleigh Street, Wauwatosa, WI 53222",
        "name": "Wauwatosa",
        "hours": "9:00am - 9:00pm Seven days a week"
    }
]